[
  {
    "name": "Bornova Güzellik Merkezi | GAMLİSA GÜZELLİK SALONU",
    "address": "Kazımdirik Mahallesi Zafer Caddesi Özkanlar Özkaya Apt, 35100 Bornova/İzmir",
    "lat": 38.4627334,
    "long": 27.2110608,
    "category": "Güzellik Salonu",
    "phone": "05303108299",
    "type": "potential",
    "customerTags": [
      "whatsapp user",
      "google marketing"
    ],
    "province": "İzmir"
  },
  {
    "name": "Ena Güzellik Merkezi",
    "address": "Ena Güzellik Merkezi, Süvari Cd. No:53 K:1 D:1, 35030 Bornova/İzmir",
    "lat": 38.460999699999995,
    "long": 27.2127177,
    "category": "Güzellik Salonu",
    "phone": "05531309393",
    "type": "potential",
    "customerTags": [
      "whatsapp user",
      "google marketing"
    ],
    "province": "İzmir"
  },
  {
    "name": "DERMAFACE / EPİLASYON İZMİR",
    "address": "DERMAFACE / EPİLASYON İZMİR, 12. Sk. No:1 Merkez, 35040 Bornova/İzmir",
    "lat": 38.465952,
    "long": 27.221129899999998,
    "category": "Güzellik Salonu",
    "phone": "05493738855",
    "type": "potential",
    "customerTags": [
      "whatsapp user",
      "google marketing"
    ],
    "province": "İzmir"
  },
  {
    "name": "EGE PLUS GÜZELLİK - Lazer-Epilasyon, Cilt Bakımı, Kirpik Lifting, Bölgesel Zayıflama, Kaş Alımı, 3D HİFU",
    "address": "EGE PLUS GÜZELLİK - Lazer-Epilasyon, Cilt Bakımı, Kirpik Lifting, Bölgesel Zayıflama, Kaş Alımı, 3D HİFU, Fevzi Çakmak Cd. No:10 Kat:1, 35100 Bornova/İzmir",
    "lat": 38.465598299999996,
    "long": 27.218761299999997,
    "category": "Güzellik Salonu",
    "phone": "05334059906",
    "type": "potential",
    "customerTags": [
      "whatsapp user",
      "google marketing"
    ],
    "province": "İzmir"
  },
  {
    "name": "N&A Güzellik Salonu",
    "address": "N&A Güzellik Salonu, Gediz Cd. No:3 D:E, 35100 Bornova/İzmir",
    "lat": 38.460080999999995,
    "long": 27.2101635,
    "category": "Güzellik Salonu",
    "phone": "08503031442",
    "type": "potential",
    "customerTags": [
      "fixed number",
      "google marketing"
    ],
    "province": "İzmir"
  },
  {
    "name": "Diva Dermal Güzellik Merkezi",
    "address": "Diva Dermal Güzellik Merkezi, 85. Sk. No:4 D:1, 35100 Bornova/İzmir",
    "lat": 38.4647715,
    "long": 27.219161399999997,
    "category": "Güzellik Salonu",
    "phone": "02323433707",
    "type": "potential",
    "customerTags": [
      "fixed number",
      "google marketing"
    ],
    "province": "İzmir"
  },
  {
    "name": "Tansu Estetik ve Güzellik Merkezi",
    "address": "Kazımdirik Mahallesi 160.SK NO:21/3 Küçükpark, 35030 Bornova/İzmir",
    "lat": 38.4606151,
    "long": 27.213495299999998,
    "category": "Güzellik Salonu",
    "phone": "05535844585",
    "type": "potential",
    "customerTags": [
      "whatsapp user",
      "google marketing"
    ],
    "province": "İzmir"
  },
  {
    "name": "Neslim Güngen Bornova",
    "address": "Neslim Güngen Bornova, İkon Tower (Mercedes Karşısı, 4088. Sk. No:114, 35080 Bornova/İzmir",
    "lat": 38.435391599999996,
    "long": 27.2107308,
    "category": "Güzellik Salonu",
    "phone": "05457485008",
    "type": "potential",
    "customerTags": [
      "whatsapp user",
      "google marketing"
    ],
    "province": "İzmir"
  },
  {
    "name": "Liya Güzellik Ve Sir Salonu",
    "address": "Liya Güzellik Ve Sir Salonu, 75. Sk. No:4, 35040 Bornova/İzmir",
    "lat": 38.465271,
    "long": 27.221943999999997,
    "category": "Güzellik Salonu",
    "phone": "05536152489",
    "type": "potential",
    "customerTags": [
      "whatsapp user",
      "google marketing"
    ],
    "province": "İzmir"
  },
  {
    "name": "Ten Güzellik Salonu",
    "address": "Ten Güzellik Salonu, 225. Sk. No:18/B, 35100 Bornova/İzmir",
    "lat": 38.4592652,
    "long": 27.1997207,
    "category": "Güzellik Salonu",
    "phone": "05333076886",
    "type": "potential",
    "customerTags": [
      "whatsapp user",
      "google marketing"
    ],
    "province": "İzmir"
  },
  {
    "name": "Melike Güngör Güzellik ve Kuaför Salonu",
    "address": "Melike Güngör Güzellik ve Kuaför Salonu, Mustafa Kemal Cd. No:122 K:1 D:1, 35030 Bornova/İzmir",
    "lat": 38.4614978,
    "long": 27.2036902,
    "category": "Güzellik Salonu",
    "phone": "05054714445",
    "type": "potential",
    "customerTags": [
      "whatsapp user",
      "google marketing"
    ],
    "province": "İzmir"
  },
  {
    "name": "Dilek Karahan Güzellik Salonu",
    "address": "Dilek Karahan Güzellik Salonu, 101/3. Sk. No:9, 35050 Bornova/İzmir",
    "lat": 38.46698,
    "long": 27.238484999999997,
    "category": "Güzellik Salonu",
    "phone": "05326077185",
    "type": "potential",
    "customerTags": [
      "whatsapp user",
      "google marketing"
    ],
    "province": "İzmir"
  },
  {
    "name": "VENÜS ESTETİK VE GÜZELLİK",
    "address": "VENÜS ESTETİK VE GÜZELLİK, 1. Sk. NO:10A, 35030 Bornova/İzmir",
    "lat": 38.466767,
    "long": 27.220276,
    "category": "Güzellik Salonu",
    "phone": "05411353485",
    "type": "potential",
    "customerTags": [
      "whatsapp user",
      "google marketing"
    ],
    "province": "İzmir"
  },
  {
    "name": "Tansu Estetik ve Güzellik Merkezi",
    "address": "Kazımdirik Mahallesi 160.SK NO:21/3 Küçükpark, 35030 Bornova/İzmir",
    "lat": 38.4606151,
    "long": 27.213495299999998,
    "category": "Güzellik Salonu",
    "phone": "05535844585",
    "type": "potential",
    "customerTags": [
      "whatsapp user",
      "google marketing"
    ],
    "province": "İzmir"
  },
  {
    "name": "Hara Güzellik",
    "address": "Hara Güzellik, Yüzbaşı İbrahim Hakkı Cd. no:161/b, 35040 Bornova/İzmir",
    "lat": 38.465231599999996,
    "long": 27.2085908,
    "category": "Güzellik Salonu",
    "phone": "02324042018",
    "type": "potential",
    "customerTags": [
      "fixed number",
      "google marketing"
    ],
    "province": "İzmir"
  },
  {
    "name": "Muna Beauty Center - Bornova Güzellik Salonu",
    "address": "Muna Beauty Center - Bornova Güzellik Salonu, Ramsa Adım, 4013/2 Sk No:4/A D:1, 35090 Bornova/İzmir",
    "lat": 38.4429227,
    "long": 27.200723699999998,
    "category": "Güzellik Salonu",
    "phone": "05333957383",
    "type": "potential",
    "customerTags": [
      "whatsapp user",
      "google marketing"
    ],
    "province": "İzmir"
  },
  {
    "name": "Naz Estetik Güzellik Salonu",
    "address": "Naz Estetik Güzellik Salonu, Mustafa Kemal Cd. No:139, 35100 Bornova/İzmir",
    "lat": 38.460380799999996,
    "long": 27.199718999999998,
    "category": "Güzellik Salonu",
    "phone": "05523723488",
    "type": "potential",
    "customerTags": [
      "whatsapp user",
      "google marketing"
    ],
    "province": "İzmir"
  },
  {
    "name": "Berlin Estetik |Lazer Epilasyon|Estetik|Saç Ekimi|Antiaging",
    "category": "Sağlık ve Güzellik Merkezi",
    "phone": "05442905525",
    "type": "potential",
    "customerTags": [
      "whatsapp user",
      "google marketing"
    ],
    "province": ""
  },
  {
    "name": "Özel Nets Polikliniği",
    "address": "Özel Nets Polikliniği, 80. Sk. No:14, 35040 Bornova/İzmir",
    "lat": 38.465295399999995,
    "long": 27.220160600000003,
    "category": "Cilt Bakım Kliniği",
    "phone": "02323882888",
    "type": "potential",
    "customerTags": [
      "fixed number",
      "google marketing"
    ],
    "province": "İzmir"
  },
  {
    "name": "Gözde Güzellik Merkezi, Buz Lazer, Epilasyon, Cilt Bakımı, Bornova İzmir, Lazer Epilasyon",
    "address": "Gözde Güzellik Merkezi, Buz Lazer, Epilasyon, Cilt Bakımı, Bornova İzmir, Lazer Epilasyon, 225. Sk. No:10 D:1D, 35030 Bornova/İzmir",
    "lat": 38.4584793,
    "long": 27.201066899999997,
    "category": "Güzellik Salonu",
    "phone": "",
    "type": "potential",
    "customerTags": [
      "no number",
      "google marketing"
    ],
    "province": "İzmir"
  },
  {
    "name": "Gözde Güzellik Merkezi, Buz Lazer, Epilasyon, Cilt Bakımı, Bornova İzmir, Lazer Epilasyon",
    "address": "Gözde Güzellik Merkezi, Buz Lazer, Epilasyon, Cilt Bakımı, Bornova İzmir, Lazer Epilasyon, 225. Sk. No:10 D:1D, 35030 Bornova/İzmir",
    "lat": 38.4584793,
    "long": 27.201066899999997,
    "category": "Güzellik Salonu",
    "phone": "",
    "type": "potential",
    "customerTags": [
      "no number",
      "google marketing"
    ],
    "province": "İzmir"
  },
  {
    "name": "Berlin Estetik |Lazer Epilasyon|Estetik|Saç Ekimi|Antiaging",
    "category": "Sağlık ve Güzellik Merkezi",
    "phone": "05442905525",
    "type": "potential",
    "customerTags": [
      "whatsapp user",
      "google marketing"
    ],
    "province": ""
  },
  {
    "name": "Birgül Güzellik Salonu",
    "address": "Mustafa Kemal Cad. Girit Apt. No:38, D:2, 35080 Bornova",
    "lat": 38.465128899999996,
    "long": 27.2162744,
    "category": "Güzellik Salonu",
    "phone": "02323433515",
    "type": "potential",
    "customerTags": [
      "fixed number",
      "google marketing"
    ],
    "province": "Mustafa Kemal Cad. Girit Apt. No:38, D:2, 35080 Bornova"
  },
  {
    "name": "GİZA GÜZELLİK ATÖLYESİ - Ezgi Avcı",
    "address": "GİZA GÜZELLİK ATÖLYESİ - Ezgi Avcı, Myvia 414, Sanayi Cd. No:31, 35100 Bornova/İzmir",
    "lat": 38.4509556,
    "long": 27.200907299999997,
    "category": "Güzellik Salonu",
    "phone": "05326978404",
    "type": "potential",
    "customerTags": [
      "whatsapp user",
      "google marketing"
    ],
    "province": "İzmir"
  },
  {
    "name": "Songül Avcı Beauty Studio Güzellik Merkezi",
    "address": "Songül Avcı Beauty Studio Güzellik Merkezi, Üniversite Cd. No: 124F, 35100 Bornova/İzmir",
    "lat": 38.4462179,
    "long": 27.1866006,
    "category": "Manikür/Pedikür Salonu",
    "phone": "05338105188",
    "type": "potential",
    "customerTags": [
      "whatsapp user",
      "google marketing"
    ],
    "province": "İzmir"
  },
  {
    "name": "Özel Nets Polikliniği",
    "address": "Özel Nets Polikliniği, 80. Sk. No:14, 35040 Bornova/İzmir",
    "lat": 38.465295399999995,
    "long": 27.220160600000003,
    "category": "Cilt Bakım Kliniği",
    "phone": "02323882888",
    "type": "potential",
    "customerTags": [
      "fixed number",
      "google marketing"
    ],
    "province": "İzmir"
  },
  {
    "name": "Mirabella",
    "address": "Mirabella, Evka 3 Mahallesi, 114. Sk. No 6, 35040 Bornova/İzmir",
    "lat": 38.467652699999995,
    "long": 27.2347139,
    "category": "Güzellik Salonu",
    "phone": "02323750202",
    "type": "potential",
    "customerTags": [
      "fixed number",
      "google marketing"
    ],
    "province": "İzmir"
  },
  {
    "name": "Nergis Karatay Güzellik Merkezi",
    "address": "Nergis Karatay Güzellik Merkezi, 379. Sk. No:1/2 B Blok, 35100 Bornova/İzmir",
    "lat": 38.445763899999996,
    "long": 27.1933774,
    "category": "Güzellik Salonu",
    "phone": "05453730880",
    "type": "potential",
    "customerTags": [
      "whatsapp user",
      "google marketing"
    ],
    "province": "İzmir"
  },
  {
    "name": "Anima Güzellik Salonu",
    "address": "Mustafa Kemal Caddesi, Palmiye Apt. No:5/1, 35100 Bornova/İzmir",
    "lat": 38.465818899999995,
    "long": 27.2184718,
    "category": "Güzellik Salonu",
    "phone": "02323883630",
    "type": "potential",
    "customerTags": [
      "fixed number",
      "google marketing"
    ],
    "province": "İzmir"
  },
  {
    "name": "ELİZİM GÜZELLİK&BAKIM",
    "address": "ELİZİM GÜZELLİK&BAKIM, Süvari Cd. NO:52 D:1, 35000 Bornova/İzmir",
    "lat": 38.4615589,
    "long": 27.212978699999997,
    "category": "Güzellik Salonu",
    "phone": "05317807079",
    "type": "potential",
    "customerTags": [
      "whatsapp user",
      "google marketing"
    ],
    "province": "İzmir"
  },
  {
    "name": "Denge Güzellik Spa Merkezi",
    "address": "Denge Güzellik Spa Merkezi, 5003/2. Sk. No:4 D:101, 35090 Bornova/İzmir",
    "lat": 38.440356099999995,
    "long": 27.180881199999998,
    "category": "Sağlık ve Güzellik Merkezi",
    "phone": "02324212226",
    "type": "potential",
    "customerTags": [
      "fixed number",
      "google marketing"
    ],
    "province": "İzmir"
  },
  {
    "name": "Gizem Buldu Güzellik Naldöken",
    "address": "Gizem Buldu Güzellik Naldöken, 1233. Sk. no:6, 35300 Bornova/İzmir",
    "lat": 38.4593086,
    "long": 27.268613799999997,
    "category": "Güzellik Salonu",
    "phone": "05539432610",
    "type": "potential",
    "customerTags": [
      "whatsapp user",
      "google marketing"
    ],
    "province": "İzmir"
  },
  {
    "name": "Lal Manikür-Pedikür-Ağda Salonu",
    "address": "Lal Manikür-Pedikür-Ağda Salonu, 153. Sk. 53 B, 35100 Bornova/İzmir",
    "lat": 38.4625602,
    "long": 27.2125862,
    "category": "Güzellik Salonu",
    "phone": "02323434288",
    "type": "potential",
    "customerTags": [
      "fixed number",
      "google marketing"
    ],
    "province": "İzmir"
  },
  {
    "name": "Slimfit Estetik Bornova",
    "address": "Slimfit Estetik Bornova, Alyans Sitesi, 85. Sk. No:4/A, 35040 Bornova/İzmir",
    "lat": 38.46473100000001,
    "long": 27.218982999999998,
    "category": "Güzellik Salonu",
    "phone": "05323996878",
    "type": "potential",
    "customerTags": [
      "whatsapp user",
      "google marketing"
    ],
    "province": "İzmir"
  },
  {
    "name": "EN Beauty Studio",
    "address": "EN Beauty Studio, 372/11. Sk. No:10, 35050 Bornova/İzmir",
    "lat": 38.4474735,
    "long": 27.215159699999997,
    "category": "Güzellik Salonu",
    "phone": "05056558525",
    "type": "potential",
    "customerTags": [
      "whatsapp user",
      "google marketing"
    ],
    "province": "İzmir"
  },
  {
    "name": "Heaven güzellik salonu sema_akkus34",
    "address": "Heaven güzellik salonu sema_akkus34, 1744. Sk. No:9, 35050 Bornova/İzmir",
    "lat": 38.4493814,
    "long": 27.232016899999998,
    "category": "Güzellik Salonu",
    "phone": "02323746214",
    "type": "potential",
    "customerTags": [
      "fixed number",
      "google marketing"
    ],
    "province": "İzmir"
  },
  {
    "name": "HARİKA KUAFÖR VE GÜZELLİK SALONU",
    "address": "HARİKA KUAFÖR VE GÜZELLİK SALONU, Palmiye apt, Mustafa Kemal Cd. No:7 Kat:1 Daire 2, 35040 Bornova/İzmir",
    "lat": 38.465790299999995,
    "long": 27.2183702,
    "category": "Güzellik Salonu",
    "phone": "05465900110",
    "type": "potential",
    "customerTags": [
      "whatsapp user",
      "google marketing"
    ],
    "province": "İzmir"
  },
  {
    "name": "Dermisia Beauty",
    "address": "Dermisia Beauty, 364/11. Sk. 3/1 O, 35500 Bornova/İzmir",
    "lat": 38.44572,
    "long": 27.202092999999998,
    "category": "Güzellik Salonu",
    "phone": "05528805435",
    "type": "potential",
    "customerTags": [
      "whatsapp user",
      "google marketing"
    ],
    "province": "İzmir"
  },
  {
    "name": "GÜLNİHAL SİR AĞDA SALONU",
    "address": "GÜLNİHAL SİR AĞDA SALONU, Çolakoğlu Pasajı, :, Fevzi Çakmak Cd. No:7 D:7, 35040 Bornova",
    "lat": 38.464562799999996,
    "long": 27.218784,
    "category": "Güzellik Salonu",
    "phone": "05306411337",
    "type": "potential",
    "customerTags": [
      "whatsapp user",
      "google marketing"
    ],
    "province": "GÜLNİHAL SİR AĞDA SALONU, Çolakoğlu Pasajı, :, Fevzi Çakmak Cd. No:7 D:7, 35040 Bornova"
  },
  {
    "name": "beauteplus+ by AYŞE IŞIK",
    "address": "beauteplus  by AYŞE IŞIK, 372/2. Sk. No:35, 35000 Bornova/İzmir",
    "lat": 38.446466199999996,
    "long": 27.2178534,
    "category": "Güzellik Salonu",
    "phone": "05056586439",
    "type": "potential",
    "customerTags": [
      "whatsapp user",
      "google marketing"
    ],
    "province": "İzmir"
  },
  {
    "name": "Dilaz Güzellik Salonu",
    "address": "Dilaz Güzellik Salonu, 4191. Sk. 2/A, 35080 Bornova/İzmir",
    "lat": 38.4265529,
    "long": 27.201617000000002,
    "category": "Güzellik Salonu",
    "phone": "02324690450",
    "type": "potential",
    "customerTags": [
      "fixed number",
      "google marketing"
    ],
    "province": "İzmir"
  },
  {
    "name": "Deniz Maniküryum",
    "address": "Deniz Maniküryum, 56. Sk. No:11/B, 35040 Bornova/İzmir",
    "lat": 38.4660501,
    "long": 27.225515899999998,
    "category": "Güzellik Salonu",
    "phone": "05331613735",
    "type": "potential",
    "customerTags": [
      "whatsapp user",
      "google marketing"
    ],
    "province": "İzmir"
  },
  {
    "name": "beauteplus+ by AYŞE IŞIK",
    "address": "beauteplus  by AYŞE IŞIK, 372/2. Sk. No:35, 35000 Bornova/İzmir",
    "lat": 38.446466199999996,
    "long": 27.2178534,
    "category": "Güzellik Salonu",
    "phone": "05056586439",
    "type": "potential",
    "customerTags": [
      "whatsapp user",
      "google marketing"
    ],
    "province": "İzmir"
  },
  {
    "name": "NK GUZELLİK MERKEZİ İZMİR",
    "address": "NK GUZELLİK MERKEZİ İZMİR, Palmiye apart, Barbaros mah. BOORKOP SİTESİ, 5329. Sk. 8A, 35090 Bornova/İzmir",
    "lat": 38.436501199999995,
    "long": 27.195868599999997,
    "category": "Güzellik Salonu",
    "phone": "05069729823",
    "type": "potential",
    "customerTags": [
      "whatsapp user",
      "google marketing"
    ],
    "province": "İzmir"
  },
  {
    "name": "My Vogue Estetik ve Güzellik",
    "address": "Kazımdirik Mah. 367/7 Sk. no:14 Kat:1 Daire No: 119/120, 35030 Bornova/İzmir",
    "lat": 38.449162699999995,
    "long": 27.2054011,
    "category": "Güzellik Salonu",
    "phone": "02325040442",
    "type": "potential",
    "customerTags": [
      "fixed number",
      "google marketing"
    ],
    "province": "İzmir"
  },
  {
    "name": "Yaşam Güzellik Salonu",
    "address": "Yaşam Güzellik Salonu, Mustafa Kemal Cd. No:122 D:4, 35100 Bornova/İzmir",
    "lat": 38.4614465,
    "long": 27.203688699999997,
    "category": "Güzellik Salonu",
    "phone": "02323394007",
    "type": "potential",
    "customerTags": [
      "fixed number",
      "google marketing"
    ],
    "province": "İzmir"
  },
  {
    "name": "Lafemme Güzellik Merkezi",
    "address": "Kazimdirik mah. Gediz cad. No:20/G şakirdağ üstü iş merkezi, 35535 Bornova/İzmir",
    "lat": 38.4620008,
    "long": 27.210019,
    "category": "Güzellik Salonu",
    "phone": "05545698515",
    "type": "potential",
    "customerTags": [
      "whatsapp user",
      "google marketing"
    ],
    "province": "İzmir"
  },
  {
    "name": "Şirin Güzellik Salonu",
    "address": "Şirin Güzellik Salonu, Şht. Taha Carım Sk., 35050 3AEvka3/Bornova/İzmir",
    "lat": 38.466814899999996,
    "long": 27.243911999999998,
    "category": "Güzellik Salonu",
    "phone": "02323759439",
    "type": "potential",
    "customerTags": [
      "fixed number",
      "google marketing"
    ],
    "province": "İzmir"
  },
  {
    "name": "Ipek Güzellik Salonu",
    "address": "Ipek Güzellik Salonu, 206. Sk. No:4/D, 35100 Bornova/İzmir",
    "lat": 38.4618894,
    "long": 27.20346,
    "category": "Güzellik Salonu",
    "phone": "",
    "type": "potential",
    "customerTags": [
      "no number",
      "google marketing"
    ],
    "province": "İzmir"
  },
  {
    "name": "Yeliz Demirel Güzellik Merkezi",
    "address": "Yeliz Demirel Güzellik Merkezi, Taşdemirler Apt, Kazım Karabekir Cd. No:11 K:1 D:1, 35040 Bornova/İzmir",
    "lat": 38.4660778,
    "long": 27.2202095,
    "category": "Güzellik Salonu",
    "phone": "05370638084",
    "type": "potential",
    "customerTags": [
      "whatsapp user",
      "google marketing"
    ],
    "province": "İzmir"
  },
  {
    "name": "NK GUZELLİK MERKEZİ İZMİR",
    "address": "NK GUZELLİK MERKEZİ İZMİR, Palmiye apart, Barbaros mah. BOORKOP SİTESİ, 5329. Sk. 8A, 35090 Bornova/İzmir",
    "lat": 38.436501199999995,
    "long": 27.195868599999997,
    "category": "Güzellik Salonu",
    "phone": "05069729823",
    "type": "potential",
    "customerTags": [
      "whatsapp user",
      "google marketing"
    ],
    "province": "İzmir"
  },
  {
    "name": "Salon Serra",
    "address": "Salon Serra, 213. Sk. 15 A, 35100 Bornova/İzmir",
    "lat": 38.460180799999996,
    "long": 27.2055446,
    "category": "Güzellik Salonu",
    "phone": "05531636600",
    "type": "potential",
    "customerTags": [
      "whatsapp user",
      "google marketing"
    ],
    "province": "İzmir"
  },
  {
    "name": "GÜLNİHAL SİR AĞDA SALONU",
    "address": "GÜLNİHAL SİR AĞDA SALONU, Çolakoğlu Pasajı, :, Fevzi Çakmak Cd. No:7 D:7, 35040 Bornova",
    "lat": 38.464562799999996,
    "long": 27.218784,
    "category": "Güzellik Salonu",
    "phone": "05306411337",
    "type": "potential",
    "customerTags": [
      "whatsapp user",
      "google marketing"
    ],
    "province": "GÜLNİHAL SİR AĞDA SALONU, Çolakoğlu Pasajı, :, Fevzi Çakmak Cd. No:7 D:7, 35040 Bornova"
  },
  {
    "name": "İZ Beauty",
    "address": "İZ Beauty, 367/2 Sokak No:4H, 35100 Bornova/İzmir",
    "lat": 38.4512741,
    "long": 27.202914999999997,
    "category": "Güzellik Salonu",
    "phone": "05056971417",
    "type": "potential",
    "customerTags": [
      "whatsapp user",
      "google marketing"
    ],
    "province": "İzmir"
  },
  {
    "name": "Nora Kuaför ve Güzellik Salonu",
    "address": "Nora Kuaför ve Güzellik Salonu, 4016. Sk. 6A, 35080 Bornova/İzmir",
    "lat": 38.4432889,
    "long": 27.203257299999997,
    "category": "Güzellik Salonu",
    "phone": "05334063950",
    "type": "potential",
    "customerTags": [
      "whatsapp user",
      "google marketing"
    ],
    "province": "İzmir"
  },
  {
    "name": "Seval İlkin Beauty Studio",
    "address": "Seval İlkin Beauty Studio, Folkart Time, 296. Sk. No:8 D:102, 35100 Bornova/İzmir",
    "lat": 38.4489214,
    "long": 27.185450499999998,
    "category": "Güzellik Salonu",
    "phone": "05321789130",
    "type": "potential",
    "customerTags": [
      "whatsapp user",
      "google marketing"
    ],
    "province": "İzmir"
  },
  {
    "name": "Soft Beaute",
    "address": "Soft Beaute, 14. Sk. 17/C, 35040 Bornova/İzmir",
    "lat": 38.466269499999996,
    "long": 27.2216904,
    "category": "Güzellik Salonu",
    "phone": "05336337635",
    "type": "potential",
    "customerTags": [
      "whatsapp user",
      "google marketing"
    ],
    "province": "İzmir"
  },
  {
    "name": "Myclinica Güzellik Bornova",
    "address": "Myclinica Güzellik Bornova, Haşim İşcan Cd., 35535 Bayraklı/İzmir",
    "lat": 38.458186999999995,
    "long": 27.1989345,
    "category": "Güzellik Salonu",
    "phone": "02323443654",
    "type": "potential",
    "customerTags": [
      "fixed number",
      "google marketing"
    ],
    "province": "İzmir"
  },
  {
    "name": "Özüm Cevher Beauty Salonu",
    "address": "Özüm Cevher Beauty Salonu, Süvari Cd. No:62, 35100 Bornova/İzmir",
    "lat": 38.4609512,
    "long": 27.2124225,
    "category": "Güzellik Salonu",
    "phone": "05070346256",
    "type": "potential",
    "customerTags": [
      "whatsapp user",
      "google marketing"
    ],
    "province": "İzmir"
  },
  {
    "name": "Ipek Güzellik Salonu",
    "address": "Ipek Güzellik Salonu, 206. Sk. No:4/D, 35100 Bornova/İzmir",
    "lat": 38.4618894,
    "long": 27.20346,
    "category": "Güzellik Salonu",
    "phone": "",
    "type": "potential",
    "customerTags": [
      "no number",
      "google marketing"
    ],
    "province": "İzmir"
  },
  {
    "name": "Şâz-İ Gül Güzellik Salonu",
    "address": "Şâz-İ Gül Güzellik Salonu, 126/2. Sk. 1/A, 35050 Bornova/İzmir",
    "lat": 38.4642626,
    "long": 27.2486268,
    "category": "Güzellik Salonu",
    "phone": "02329999391",
    "type": "potential",
    "customerTags": [
      "fixed number",
      "google marketing"
    ],
    "province": "İzmir"
  },
  {
    "name": "Hacer Çal Bay Bayan Kaş Güzellik Salonu",
    "address": "Hacer Çal Bay Bayan Kaş Güzellik Salonu, Mustafa Kemal Cd. No:74 D:1, 35100 Bornova/İzmir",
    "lat": 38.4623528,
    "long": 27.2071601,
    "category": "Güzellik Salonu",
    "phone": "05468694485",
    "type": "potential",
    "customerTags": [
      "whatsapp user",
      "google marketing"
    ],
    "province": "İzmir"
  },
  {
    "name": "Miray Erken Güzellik Merkezi",
    "address": "Miray Erken Güzellik Merkezi, 454. Sk. No:2/C, 35000 Bornova/İzmir",
    "lat": 38.4677242,
    "long": 27.2195683,
    "category": "Sağlık ve Güzellik Merkezi",
    "phone": "02324800005",
    "type": "potential",
    "customerTags": [
      "fixed number",
      "google marketing"
    ],
    "province": "İzmir"
  },
  {
    "name": "Güliz’in Güzellik Atölyesi | Bornovada Microblading | Bornovada Bölgesel incelme | Bornovada Lazer Epilasyon",
    "address": "Güliz’in Güzellik Atölyesi | Bornovada Microblading | Bornovada Bölgesel incelme | Bornovada Lazer Epilasyon, 108/3. Sk. 10-1 A, 35050 Bornova/İzmir",
    "lat": 38.466885399999995,
    "long": 27.24356,
    "category": "Güzellik Salonu",
    "phone": "05368361984",
    "type": "potential",
    "customerTags": [
      "whatsapp user",
      "google marketing"
    ],
    "province": "İzmir"
  },
  {
    "name": "MERVE DOĞANDEMİR BEAUTY STUDIO",
    "address": "MERVE DOĞANDEMİR BEAUTY STUDIO, Mustafa Kemal Cd. 49 B, 35100 Bornova/İzmir",
    "lat": 38.463659,
    "long": 27.213478,
    "category": "Güzellik Salonu",
    "phone": "02324154541",
    "type": "potential",
    "customerTags": [
      "fixed number",
      "google marketing"
    ],
    "province": "İzmir"
  },
  {
    "name": "Meral Beauty Studio",
    "address": "Meral Beauty Studio, 153. Sk. No : 14/A, 35100 Bornova/İzmir",
    "lat": 38.4641801,
    "long": 27.2157635,
    "category": "Güzellik Salonu",
    "phone": "05308759587",
    "type": "potential",
    "customerTags": [
      "whatsapp user",
      "google marketing"
    ],
    "province": "İzmir"
  },
  {
    "name": "saloon nazik",
    "address": "saloon nazik, 168. Sk. No:168/A, 35040 Bornova/İzmir",
    "lat": 38.4592965,
    "long": 27.2118447,
    "category": "Güzellik Salonu",
    "phone": "02323393929",
    "type": "potential",
    "customerTags": [
      "fixed number",
      "google marketing"
    ],
    "province": "İzmir"
  },
  {
    "name": "Black & Pink Beauty Saloon",
    "address": "Black & Pink Beauty Saloon, 454. Sk. No:2, 35040 Bornova/İzmir",
    "lat": 38.467717799999996,
    "long": 27.2195587,
    "category": "Lazer Epilasyon Hizmeti",
    "phone": "",
    "type": "potential",
    "customerTags": [
      "no number",
      "google marketing"
    ],
    "province": "İzmir"
  },
  {
    "name": "Neria Estetik ve Güzellik Salonu",
    "address": "Mustafa Kemal Cad. Doğanlar 10 Apt. 128/E, 35040 Bornova/İzmir",
    "lat": 38.4616025,
    "long": 27.202466599999997,
    "category": "Güzellik Salonu",
    "phone": "02323434602",
    "type": "potential",
    "customerTags": [
      "fixed number",
      "google marketing"
    ],
    "province": "İzmir"
  },
  {
    "name": "Soft Beaute",
    "address": "Soft Beaute, 14. Sk. 17/C, 35040 Bornova/İzmir",
    "lat": 38.466269499999996,
    "long": 27.2216904,
    "category": "Güzellik Salonu",
    "phone": "05336337635",
    "type": "potential",
    "customerTags": [
      "whatsapp user",
      "google marketing"
    ],
    "province": "İzmir"
  },
  {
    "name": "Miray Erken Güzellik Merkezi",
    "address": "Miray Erken Güzellik Merkezi, 454. Sk. No:2/C, 35000 Bornova/İzmir",
    "lat": 38.4677242,
    "long": 27.2195683,
    "category": "Sağlık ve Güzellik Merkezi",
    "phone": "02324800005",
    "type": "potential",
    "customerTags": [
      "fixed number",
      "google marketing"
    ],
    "province": "İzmir"
  },
  {
    "name": "Soft Beaute",
    "address": "Soft Beaute, 14. Sk. 17/C, 35040 Bornova/İzmir",
    "lat": 38.466269499999996,
    "long": 27.2216904,
    "category": "Güzellik Salonu",
    "phone": "05336337635",
    "type": "potential",
    "customerTags": [
      "whatsapp user",
      "google marketing"
    ],
    "province": "İzmir"
  },
  {
    "name": "Olga Tırnak Bayraklı",
    "address": "Olga Tırnak Bayraklı, 2131/2. Sk. No:39 A D:2 Blok, 35030 Bornova/İzmir",
    "lat": 38.453822599999995,
    "long": 27.1805539,
    "category": "Güzellik Salonu",
    "phone": "05461713535",
    "type": "potential",
    "customerTags": [
      "whatsapp user",
      "google marketing"
    ],
    "province": "İzmir"
  },
  {
    "name": "Özüm Cevher Beauty Salonu",
    "address": "Özüm Cevher Beauty Salonu, Süvari Cd. No:62, 35100 Bornova/İzmir",
    "lat": 38.4609512,
    "long": 27.2124225,
    "category": "Güzellik Salonu",
    "phone": "05070346256",
    "type": "potential",
    "customerTags": [
      "whatsapp user",
      "google marketing"
    ],
    "province": "İzmir"
  },
  {
    "name": "Altınay güzellik salonu",
    "category": "Güzellik Salonu",
    "phone": "02323476090",
    "type": "potential",
    "customerTags": [
      "fixed number",
      "google marketing"
    ],
    "province": ""
  },
  {
    "name": "Özge Güzellik Salonu",
    "address": "Özge Güzellik Salonu, 544. Sk. No:17, 35040 Bornova/İzmir",
    "lat": 38.4663092,
    "long": 27.217652299999997,
    "category": "Güzellik Salonu",
    "phone": "",
    "type": "potential",
    "customerTags": [
      "no number",
      "google marketing"
    ],
    "province": "İzmir"
  },
  {
    "name": "Myclinica Güzellik Bornova",
    "address": "Myclinica Güzellik Bornova, Haşim İşcan Cd., 35535 Bayraklı/İzmir",
    "lat": 38.458186999999995,
    "long": 27.1989345,
    "category": "Güzellik Salonu",
    "phone": "02323443654",
    "type": "potential",
    "customerTags": [
      "fixed number",
      "google marketing"
    ],
    "province": "İzmir"
  },
  {
    "name": "DENİZ KUAFÖR",
    "address": "5143.Sok No:14 /A Camdibi, 35090 Bornova/İzmir",
    "lat": 38.4391756,
    "long": 27.190795299999998,
    "category": "Güzellik Salonu",
    "phone": "02324867246",
    "type": "potential",
    "customerTags": [
      "fixed number",
      "google marketing"
    ],
    "province": "İzmir"
  },
  {
    "name": "Valorem Beauty by Kıymet Özcan",
    "address": "Dap Yapı, Barbaros Mahallesi Refik Tulga Caddesi 5301, 2. Sk. 2/C, 35260 Bornova/İzmir",
    "lat": 38.466518,
    "long": 27.219538,
    "category": "Güzellik Salonu",
    "phone": "05528583035",
    "type": "potential",
    "customerTags": [
      "whatsapp user",
      "google marketing"
    ],
    "province": "İzmir"
  },
  {
    "name": "Bornova Kuaför Erkan Pınar Güzellik",
    "address": "Bornova Kuaför Erkan Pınar Güzellik, 153. Sk. No:69 D:1, 35100 Bornova/İzmir",
    "lat": 38.462283899999996,
    "long": 27.211422,
    "category": "Güzellik Salonu",
    "phone": "02323883313",
    "type": "potential",
    "customerTags": [
      "fixed number",
      "google marketing"
    ],
    "province": "İzmir"
  },
  {
    "name": "ZÜHAL AKMAN - M.A.T İzmir / Faby Türkiye Güzellik ve Kuaför Salonu",
    "address": "ZÜHAL AKMAN - M.A.T İzmir / Faby Türkiye Güzellik ve Kuaför Salonu, Rafetpaşa Mahallesi, Yıldırım Beyazıt Cd. No:217 H, 35090 Bornova/İzmir",
    "lat": 38.4431662,
    "long": 27.199142,
    "category": "Güzellik Salonu",
    "phone": "02324221101",
    "type": "potential",
    "customerTags": [
      "fixed number",
      "google marketing"
    ],
    "province": "İzmir"
  },
  {
    "name": "Dermalin",
    "address": "Dermalin, 35535 Bayraklı/İzmir",
    "lat": 38.4594101,
    "long": 27.1987879,
    "category": "Güzellik Salonu",
    "phone": "02323474759",
    "type": "potential",
    "customerTags": [
      "fixed number",
      "google marketing"
    ],
    "province": "İzmir"
  },
  {
    "name": "MEHTAP DERDİYOK BEAUTY CENTER",
    "address": "MEHTAP DERDİYOK BEAUTY CENTER, Yüzbaşı İbrahim Hakkı Cd. no:111/b, 35040 Bornova/İzmir",
    "lat": 38.4652017,
    "long": 27.2087966,
    "category": "Sağlık ve Güzellik Merkezi",
    "phone": "05395777466",
    "type": "potential",
    "customerTags": [
      "whatsapp user",
      "google marketing"
    ],
    "province": "İzmir"
  },
  {
    "name": "Alinda Nail Studio",
    "address": "Alinda Nail Studio, Foto Semih üzeri, 2. Sk. Seyhan iş merkezi no:1 kat:6, 35040 Bornova/İzmir",
    "lat": 38.4666429,
    "long": 27.2191911,
    "category": "Güzellik Salonu",
    "phone": "05442441149",
    "type": "potential",
    "customerTags": [
      "whatsapp user",
      "google marketing"
    ],
    "province": "İzmir"
  },
  {
    "name": "Manza Beauty Studio",
    "address": "Manza Beauty Studio, Fevzi Çakmak Cd. bina no:11 kat:1 daire:1, 35000 Bornova/İzmir",
    "lat": 38.4640361,
    "long": 27.218422399999998,
    "category": "Güzellik Salonu",
    "phone": "05011073030",
    "type": "potential",
    "customerTags": [
      "whatsapp user",
      "google marketing"
    ],
    "province": "İzmir"
  },
  {
    "name": "Reine Estetik & Güzellik Merkezi",
    "address": "Reine Estetik & Güzellik Merkezi, Ankara Cd., 35030 Bayraklı/İzmir",
    "lat": 38.451237500000005,
    "long": 27.187312499999997,
    "category": "Güzellik Salonu",
    "phone": "08502262262",
    "type": "potential",
    "customerTags": [
      "fixed number",
      "google marketing"
    ],
    "province": "İzmir"
  },
  {
    "name": "Matmazel Güzellik Salonu",
    "address": "Matmazel Güzellik Salonu, 114. Sk. No:2/A, 35040 Bornova/İzmir",
    "lat": 38.4675478,
    "long": 27.2344371,
    "category": "Güzellik Salonu",
    "phone": "",
    "type": "potential",
    "customerTags": [
      "no number",
      "google marketing"
    ],
    "province": "İzmir"
  },
  {
    "name": "NOBLE WOMEN saç tasarım ve güzellik salonu",
    "address": "Kazımdirik Mahallesi 152 sokak yıldız pasajı, no:4/K, 35080 Bornova/İzmir",
    "lat": 38.4645854,
    "long": 27.217228799999997,
    "category": "Güzellik Salonu",
    "phone": "05443313032",
    "type": "potential",
    "customerTags": [
      "whatsapp user",
      "google marketing"
    ],
    "province": "İzmir"
  },
  {
    "name": "MERVE AYÇA BEAUTY",
    "address": "MERVE AYÇA BEAUTY, 5181. Sk. No:20, 35090 Bornova/İzmir",
    "lat": 38.441752,
    "long": 27.200139999999998,
    "category": "Güzellik Salonu",
    "phone": "05535677033",
    "type": "potential",
    "customerTags": [
      "whatsapp user",
      "google marketing"
    ],
    "province": "İzmir"
  },
  {
    "name": "Luna",
    "address": "Luna, Haşim İşcan Cd. No: 18 B Blok, D:1, 35535 Bayraklı/İzmir",
    "lat": 38.457797899999996,
    "long": 27.199389399999998,
    "category": "Güzellik Salonu",
    "phone": "02323440002",
    "type": "potential",
    "customerTags": [
      "fixed number",
      "google marketing"
    ],
    "province": "İzmir"
  },
  {
    "name": "Ebruli güzellik salonu",
    "address": "Ebruli güzellik salonu, 550. Sk. 60 A, 35040 Bornova/İzmir",
    "lat": 38.4646948,
    "long": 27.2109821,
    "category": "Güzellik Salonu",
    "phone": "02323422747",
    "type": "potential",
    "customerTags": [
      "fixed number",
      "google marketing"
    ],
    "province": "İzmir"
  },
  {
    "name": "Bayraklı Saç Ekim Merkezi - İzmir Eges Hair Transplant",
    "address": "Bayraklı Saç Ekim Merkezi - İzmir Eges Hair Transplant, Haydar Aliyev Cd. No:40/A, 35530 Bornova/İzmir",
    "lat": 38.4554641,
    "long": 27.179989,
    "category": "Güzellik Salonu",
    "phone": "02324800150",
    "type": "potential",
    "customerTags": [
      "fixed number",
      "google marketing"
    ],
    "province": "İzmir"
  },
  {
    "name": "Novus Estetik",
    "address": "Yeşilova Mahallesi, D:No:84/Z02, 4174. Sk, 35080 Bornova",
    "lat": 38.4313085,
    "long": 27.2095615,
    "category": "Güzellik Salonu",
    "phone": "05331409933",
    "type": "potential",
    "customerTags": [
      "whatsapp user",
      "google marketing"
    ],
    "province": "Z02, 4174. Sk, 35080 Bornova"
  },
  {
    "name": "Vildan Beauty & Nail Center",
    "address": "Vildan Beauty & Nail Center, 185. Sk. No: 2B, 35100 Bornova/İzmir",
    "lat": 38.4586304,
    "long": 27.2081934,
    "category": "Epilasyon Hizmetleri",
    "phone": "02323231343",
    "type": "potential",
    "customerTags": [
      "fixed number",
      "google marketing"
    ],
    "province": "İzmir"
  },
  {
    "name": "Pia saç tasarım & güzellik",
    "address": "PİA GÜZELLİK, Zafer caddesi turcan apartmanı no 15 daire 5, 35050 Bornova/İzmir",
    "lat": 38.460673299999996,
    "long": 27.2121684,
    "category": "Güzellik Salonu",
    "phone": "05555817410",
    "type": "potential",
    "customerTags": [
      "whatsapp user",
      "google marketing"
    ],
    "province": "İzmir"
  },
  {
    "name": "Zante Nail & Beauty",
    "address": "Zante Nail & Beauty, Sanayi Cd. No:33 Kat:1, 35100 Bornova/İzmir",
    "lat": 38.4506963,
    "long": 27.200937099999997,
    "category": "Güzellik Salonu",
    "phone": "08503083976",
    "type": "potential",
    "customerTags": [
      "fixed number",
      "google marketing"
    ],
    "province": "İzmir"
  },
  {
    "name": "EL İZİ SAÇ TASARIM",
    "address": "EL İZİ SAÇ TASARIM, 154. Sk. No:6, 35000 Bornova/İzmir",
    "lat": 38.4640031,
    "long": 27.2151882,
    "category": "Güzellik Salonu",
    "phone": "05533108987",
    "type": "potential",
    "customerTags": [
      "whatsapp user",
      "google marketing"
    ],
    "province": "İzmir"
  },
  {
    "name": "Busece saç tasarım ve güzellik salonu",
    "address": "Busece saç tasarım ve güzellik salonu, 5230. Sk. no:7 /A, 35090 Bornova/İzmir",
    "lat": 38.43723,
    "long": 27.192275,
    "category": "Güzellik Salonu",
    "phone": "05353703584",
    "type": "potential",
    "customerTags": [
      "whatsapp user",
      "google marketing"
    ],
    "province": "İzmir"
  },
  {
    "name": "Mavi Deniz Güzellik Merkezi",
    "address": "Mavi Deniz Güzellik Merkezi, 269/2. Sk. No:2, 35535 Bayraklı/İzmir",
    "lat": 38.4563249,
    "long": 27.1939776,
    "category": "Güzellik Salonu",
    "phone": "",
    "type": "potential",
    "customerTags": [
      "no number",
      "google marketing"
    ],
    "province": "İzmir"
  },
  {
    "name": "Arven Epilasyon & Güzellik Salonu",
    "address": "Arven Epilasyon & Güzellik Salonu, Fevzi Çakmak Cd. No:12, 35040 Bornova/İzmir",
    "lat": 38.4654429,
    "long": 27.2188011,
    "category": "Epilasyon Hizmetleri",
    "phone": "02323886677",
    "type": "potential",
    "customerTags": [
      "fixed number",
      "google marketing"
    ],
    "province": "İzmir"
  },
  {
    "name": "Matmazel Güzellik Salonu",
    "address": "Matmazel Güzellik Salonu, 114. Sk. No:2/A, 35040 Bornova/İzmir",
    "lat": 38.4675478,
    "long": 27.2344371,
    "category": "Güzellik Salonu",
    "phone": "",
    "type": "potential",
    "customerTags": [
      "no number",
      "google marketing"
    ],
    "province": "İzmir"
  },
  {
    "name": "Slimfit Estetik Bayraklı (Lider Centrio)",
    "address": "Mansuroğlu Mah. 1593/1. Lider Centrio İş Merkezi B Blok, Sok No:4/E2 Zemin Kat, 35535 Bayraklı/İzmir",
    "lat": 38.452055099999995,
    "long": 27.1810839,
    "category": "Sağlık ve Güzellik Merkezi",
    "phone": "05301774001",
    "type": "potential",
    "customerTags": [
      "whatsapp user",
      "google marketing"
    ],
    "province": "İzmir"
  },
  {
    "name": "Ef Kuaför ve Güzellik salonu",
    "address": "Ef Kuaför ve Güzellik salonu, Yavuz Cd. No:115, 35000 Bornova/İzmir",
    "lat": 38.472772899999995,
    "long": 27.200293,
    "category": "Güzellik Salonu",
    "phone": "05396843050",
    "type": "potential",
    "customerTags": [
      "whatsapp user",
      "google marketing"
    ],
    "province": "İzmir"
  },
  {
    "name": "SalonSerap",
    "address": "SalonSerap, 154. Sk. 6/d, 35040 Bornova/İzmir",
    "lat": 38.4639281,
    "long": 27.2152373,
    "category": "Güzellik Salonu",
    "phone": "05073622200",
    "type": "potential",
    "customerTags": [
      "whatsapp user",
      "google marketing"
    ],
    "province": "İzmir"
  },
  {
    "name": "NİHAL ADAG GÜZELLİK VE MESLEK KURSU",
    "address": "Osmangazi Yavuz Caddesi 617, 10 sk no:354/A, 35535 Bayraklı/İzmir",
    "lat": 38.465492,
    "long": 27.186463999999997,
    "category": "Eğitim Merkezi",
    "phone": "02329991141",
    "type": "potential",
    "customerTags": [
      "fixed number",
      "google marketing"
    ],
    "province": "İzmir"
  },
  {
    "name": "Elen plus",
    "address": "Elen plus, 166. Sk. No: 14, 35100 Bornova/İzmir",
    "lat": 38.4592457,
    "long": 27.213885299999998,
    "category": "Güzellik Salonu",
    "phone": "02325203118",
    "type": "potential",
    "customerTags": [
      "fixed number",
      "google marketing"
    ],
    "province": "İzmir"
  },
  {
    "name": "Wella Kuafö",
    "address": "Wella Kuafö, 10. Sk., 35040 Bornova/İzmir",
    "lat": 38.4669156,
    "long": 27.221657099999998,
    "category": "Güzellik Salonu",
    "phone": "05385068575",
    "type": "potential",
    "customerTags": [
      "whatsapp user",
      "google marketing"
    ],
    "province": "İzmir"
  },
  {
    "name": "Ebruli güzellik salonu",
    "address": "Ebruli güzellik salonu, 550. Sk. 60 A, 35040 Bornova/İzmir",
    "lat": 38.4646948,
    "long": 27.2109821,
    "category": "Güzellik Salonu",
    "phone": "02323422747",
    "type": "potential",
    "customerTags": [
      "fixed number",
      "google marketing"
    ],
    "province": "İzmir"
  },
  {
    "name": "Novus Estetik",
    "address": "Yeşilova Mahallesi, D:No:84/Z02, 4174. Sk, 35080 Bornova",
    "lat": 38.4313085,
    "long": 27.2095615,
    "category": "Güzellik Salonu",
    "phone": "05331409933",
    "type": "potential",
    "customerTags": [
      "whatsapp user",
      "google marketing"
    ],
    "province": "Z02, 4174. Sk, 35080 Bornova"
  },
  {
    "name": "goldea beauty",
    "address": "goldea beauty, Zafer Cd. No:30, 35040 Bornova/İzmir",
    "lat": 38.4613334,
    "long": 27.2119339,
    "category": "Güzellik Salonu",
    "phone": "05303708200",
    "type": "potential",
    "customerTags": [
      "whatsapp user",
      "google marketing"
    ],
    "province": "İzmir"
  },
  {
    "name": "1ruj1highlighter Beauty",
    "address": "1ruj1highlighter Beauty, Barbaros Cad. No:374 A, 35030 Bornova/İzmir",
    "lat": 38.4877251,
    "long": 27.216034,
    "category": "Güzellik Salonu",
    "phone": "05466094486",
    "type": "potential",
    "customerTags": [
      "whatsapp user",
      "google marketing"
    ],
    "province": "İzmir"
  },
  {
    "name": "Kuaför NESA",
    "address": "Kuaför NESA, Atatürk mah. No:, Ziya Gökalp Cd. No:183, 35030 Bornova/İzmir",
    "lat": 38.479219,
    "long": 27.2042213,
    "category": "Güzellik Salonu",
    "phone": "05449367084",
    "type": "potential",
    "customerTags": [
      "whatsapp user",
      "google marketing"
    ],
    "province": "İzmir"
  },
  {
    "name": "Sisi",
    "address": "Sisi, 126/4. Sk. 1/E, 35050 Bornova/İzmir",
    "lat": 38.4644932,
    "long": 27.2480592,
    "category": "Manikür/Pedikür Salonu",
    "phone": "05309504809",
    "type": "potential",
    "customerTags": [
      "whatsapp user",
      "google marketing"
    ],
    "province": "İzmir"
  },
  {
    "name": "Ena Güzellik Merkezi",
    "address": "Ena Güzellik Merkezi, 187. Sk. No:15, 35100 Bornova/İzmir",
    "lat": 38.4588991,
    "long": 27.20902,
    "category": "Güzellik Salonu",
    "phone": "",
    "type": "potential",
    "customerTags": [
      "no number",
      "google marketing"
    ],
    "province": "İzmir"
  },
  {
    "name": "Arven Epilasyon & Güzellik Salonu",
    "address": "Arven Epilasyon & Güzellik Salonu, Fevzi Çakmak Cd. No:12, 35040 Bornova/İzmir",
    "lat": 38.4654429,
    "long": 27.2188011,
    "category": "Epilasyon Hizmetleri",
    "phone": "02323886677",
    "type": "potential",
    "customerTags": [
      "fixed number",
      "google marketing"
    ],
    "province": "İzmir"
  },
  {
    "name": "Esiderm Güzellik & Estetik",
    "address": "Esiderm Güzellik & Estetik, Mustafa Kemal Cd. No:122, 35100 Bornova/İzmir",
    "lat": 38.461436899999995,
    "long": 27.2035615,
    "category": "Güzellik Salonu",
    "phone": "02323437333",
    "type": "potential",
    "customerTags": [
      "fixed number",
      "google marketing"
    ],
    "province": "İzmir"
  },
  {
    "name": "Nora Coiffeur & Güzellik Salonu",
    "address": "5/D, Kazımdirik Mahallesi 367/4 Sokak Nar Park Rezidans, 35100 Bornova",
    "lat": 38.4523723,
    "long": 27.204713299999998,
    "category": "Güzellik Salonu",
    "phone": "02329999970",
    "type": "potential",
    "customerTags": [
      "fixed number",
      "google marketing"
    ],
    "province": "4 Sokak Nar Park Rezidans, 35100 Bornova"
  },
  {
    "name": "Fi Güzellik",
    "address": "Fi Güzellik, Zafer Cd. No:15, 35100 Bornova/İzmir",
    "lat": 38.4607208,
    "long": 27.2120942,
    "category": "Güzellik Salonu",
    "phone": "",
    "type": "potential",
    "customerTags": [
      "no number",
      "google marketing"
    ],
    "province": "İzmir"
  },
  {
    "name": "Zen Estetik Pınarbaşı",
    "address": "Zen Estetik Pınarbaşı, 7058/3. Sk. 16\\A, 35060 Bornova/İzmir",
    "lat": 38.4307766,
    "long": 27.274274899999998,
    "category": "Güzellik Salonu",
    "phone": "",
    "type": "potential",
    "customerTags": [
      "no number",
      "google marketing"
    ],
    "province": "İzmir"
  },
  {
    "name": "Shiny Nail&Beauty - İzmir Güzellik Merkezi",
    "address": "Kazımdirik Mahallesi, Üniversite Caddesi Numara: 124, D:J, 35100 Bornova/İzmir",
    "lat": 38.4457879,
    "long": 27.1858874,
    "category": "Güzellik Salonu",
    "phone": "",
    "type": "potential",
    "customerTags": [
      "no number",
      "google marketing"
    ],
    "province": "İzmir"
  },
  {
    "name": "Ceylan Güzellik Salonu",
    "address": "Ceylan Güzellik Salonu, 206. Sk., 35100 Bornova/İzmir",
    "lat": 38.462432,
    "long": 27.2033252,
    "category": "Güzellik Salonu",
    "phone": "",
    "type": "potential",
    "customerTags": [
      "no number",
      "google marketing"
    ],
    "province": "İzmir"
  },
  {
    "name": "goldea beauty",
    "address": "goldea beauty, Zafer Cd. No:30, 35040 Bornova/İzmir",
    "lat": 38.4613334,
    "long": 27.2119339,
    "category": "Güzellik Salonu",
    "phone": "05303708200",
    "type": "potential",
    "customerTags": [
      "whatsapp user",
      "google marketing"
    ],
    "province": "İzmir"
  },
  {
    "name": "Gülsüm Bayan Kuaförü",
    "address": "Gülsüm Bayan Kuaförü, 36. Sk. 1/B, 35040 Bornova/İzmir",
    "lat": 38.4647912,
    "long": 27.2241337,
    "category": "Kuaför",
    "phone": "02323432885",
    "type": "potential",
    "customerTags": [
      "fixed number",
      "google marketing"
    ],
    "province": "İzmir"
  },
  {
    "name": "Amy Studio",
    "address": "Amy Studio, 161. Sk. No:28, 35100 Bornova/İzmir",
    "lat": 38.458906500000005,
    "long": 27.212664699999998,
    "category": "Güzellik Salonu",
    "phone": "05522906804",
    "type": "potential",
    "customerTags": [
      "whatsapp user",
      "google marketing"
    ],
    "province": "İzmir"
  },
  {
    "name": "Shiny Nail&Beauty - İzmir Güzellik Merkezi",
    "address": "Kazımdirik Mahallesi, Üniversite Caddesi Numara: 124, D:J, 35100 Bornova/İzmir",
    "lat": 38.4457879,
    "long": 27.1858874,
    "category": "Güzellik Salonu",
    "phone": "",
    "type": "potential",
    "customerTags": [
      "no number",
      "google marketing"
    ],
    "province": "İzmir"
  },
  {
    "name": "1ruj1highlighter Beauty",
    "address": "1ruj1highlighter Beauty, Barbaros Cad. No:374 A, 35030 Bornova/İzmir",
    "lat": 38.4877251,
    "long": 27.216034,
    "category": "Güzellik Salonu",
    "phone": "05466094486",
    "type": "potential",
    "customerTags": [
      "whatsapp user",
      "google marketing"
    ],
    "province": "İzmir"
  },
  {
    "name": "Ecem Abacılar Nail Studio",
    "address": "Ecem Abacılar Nail Studio, 75. Sk. No:5/C, 35030 Bornova/İzmir",
    "lat": 38.465388999999995,
    "long": 27.221725499999998,
    "category": "Güzellik Salonu",
    "phone": "05453101912",
    "type": "potential",
    "customerTags": [
      "whatsapp user",
      "google marketing"
    ],
    "province": "İzmir"
  },
  {
    "name": "Elis Güzellik Salonu",
    "address": "Elis Güzellik Salonu, 166. Sk. No:14/2, 35100 Bornova/İzmir",
    "lat": 38.4593043,
    "long": 27.2139879,
    "category": "Güzellik Salonu",
    "phone": "",
    "type": "potential",
    "customerTags": [
      "no number",
      "google marketing"
    ],
    "province": "İzmir"
  },
  {
    "name": "Seda Coiffeur Güzellik Merkezi",
    "address": "Seda Coiffeur Güzellik Merkezi, 5329/1. Sk. No: 8/A, 35090 Bornova/İzmir",
    "lat": 38.4356386,
    "long": 27.1955153,
    "category": "Güzellik Salonu",
    "phone": "02324672277",
    "type": "potential",
    "customerTags": [
      "fixed number",
      "google marketing"
    ],
    "province": "İzmir"
  },
  {
    "name": "Sisi",
    "address": "Sisi, 126/4. Sk. 1/E, 35050 Bornova/İzmir",
    "lat": 38.4644932,
    "long": 27.2480592,
    "category": "Manikür/Pedikür Salonu",
    "phone": "05309504809",
    "type": "potential",
    "customerTags": [
      "whatsapp user",
      "google marketing"
    ],
    "province": "İzmir"
  },
  {
    "name": "Slimfit Estetik Bayraklı (Lider Centrio)",
    "address": "Mansuroğlu Mah. 1593/1. Lider Centrio İş Merkezi B Blok, Sok No:4/E2 Zemin Kat, 35535 Bayraklı/İzmir",
    "lat": 38.452055099999995,
    "long": 27.1810839,
    "category": "Sağlık ve Güzellik Merkezi",
    "phone": "05301774001",
    "type": "potential",
    "customerTags": [
      "whatsapp user",
      "google marketing"
    ],
    "province": "İzmir"
  },
  {
    "name": "NİHAL ADAG GÜZELLİK VE MESLEK KURSU",
    "address": "Osmangazi Yavuz Caddesi 617, 10 sk no:354/A, 35535 Bayraklı/İzmir",
    "lat": 38.465492,
    "long": 27.186463999999997,
    "category": "Eğitim Merkezi",
    "phone": "02329991141",
    "type": "potential",
    "customerTags": [
      "fixed number",
      "google marketing"
    ],
    "province": "İzmir"
  },
  {
    "name": "Ebru Yürekli Beauty Center",
    "address": "Ebru Yürekli Beauty Center, 33/1. Sk. No:4, 35040 Bornova/İzmir",
    "lat": 38.4663901,
    "long": 27.2201499,
    "category": "Güzellik Salonu",
    "phone": "",
    "type": "potential",
    "customerTags": [
      "no number",
      "google marketing"
    ],
    "province": "İzmir"
  },
  {
    "name": "NG Beauty Center",
    "address": "NG Beauty Center, 61. Sk. Hedef Öğrenci Yurdu No: 10, 35040 Bornova/İzmir",
    "lat": 38.4639203,
    "long": 27.226615499999998,
    "category": "Güzellik Salonu",
    "phone": "05334329215",
    "type": "potential",
    "customerTags": [
      "whatsapp user",
      "google marketing"
    ],
    "province": "İzmir"
  },
  {
    "name": "Reyhan Ağda & Sir Salonu",
    "address": "Reyhan Ağda & Sir Salonu, 66. Sk. No:13A, 35040 Bornova/İzmir",
    "lat": 38.463486499999995,
    "long": 27.2231344,
    "category": "Ağdalı Epilasyon Hizmeti",
    "phone": "02323424665",
    "type": "potential",
    "customerTags": [
      "fixed number",
      "google marketing"
    ],
    "province": "İzmir"
  },
  {
    "name": "Soft Güzellik Salonu",
    "address": "Soft Güzellik Salonu, 159. Sk. No:10/1, 35100 Bornova/İzmir",
    "lat": 38.461551799999995,
    "long": 27.2147238,
    "category": "Güzellik Salonu",
    "phone": "",
    "type": "potential",
    "customerTags": [
      "no number",
      "google marketing"
    ],
    "province": "İzmir"
  },
  {
    "name": "Bir Ay Güzellik Salonu",
    "address": "Bir Ay Güzellik Salonu, 126/5. Sk. No:47 D:g, 35050 Bornova/İzmir",
    "lat": 38.464605,
    "long": 27.247497199999998,
    "category": "Güzellik Salonu",
    "phone": "02323756067",
    "type": "potential",
    "customerTags": [
      "fixed number",
      "google marketing"
    ],
    "province": "İzmir"
  },
  {
    "name": "Nora Coiffeur & Güzellik Salonu",
    "address": "5/D, Kazımdirik Mahallesi 367/4 Sokak Nar Park Rezidans, 35100 Bornova",
    "lat": 38.4523723,
    "long": 27.204713299999998,
    "category": "Güzellik Salonu",
    "phone": "02329999970",
    "type": "potential",
    "customerTags": [
      "fixed number",
      "google marketing"
    ],
    "province": "4 Sokak Nar Park Rezidans, 35100 Bornova"
  },
  {
    "name": "Erkan Yıldırım",
    "address": "Erkan Yıldırım, 156. Sk. No:5/B, 35100 Bornova/İzmir",
    "lat": 38.46149,
    "long": 27.2166104,
    "category": "Güzellik Salonu",
    "phone": "02329999018",
    "type": "potential",
    "customerTags": [
      "fixed number",
      "google marketing"
    ],
    "province": "İzmir"
  },
  {
    "name": "Fox Beauty Clinic",
    "address": "Fox Beauty Clinic, Abdi İpekçi Cd. No:260 D:A, 35080 Bornova/İzmir",
    "lat": 38.439225799999996,
    "long": 27.2018801,
    "category": "Güzellik Salonu",
    "phone": "",
    "type": "potential",
    "customerTags": [
      "no number",
      "google marketing"
    ],
    "province": "İzmir"
  },
  {
    "name": "Royal Beauty Club",
    "address": "Yeşilova Mahallesi, 4174 Sokak, No:84 Point, 35080 Bornova",
    "lat": 38.430987699999996,
    "long": 27.210559099999998,
    "category": "Güzellik Salonu",
    "phone": "05331409933",
    "type": "potential",
    "customerTags": [
      "whatsapp user",
      "google marketing"
    ],
    "province": "Yeşilova Mahallesi, 4174 Sokak, No:84 Point, 35080 Bornova"
  },
  {
    "name": "Bea Life Beauty Clinic",
    "address": "Bea Life Beauty Clinic, Mustafa Kemal Cd. No:49 Kat.1 D.1, 35100 Bornova/İzmir",
    "lat": 38.463594,
    "long": 27.213518999999998,
    "category": "Güzellik Salonu",
    "phone": "05524028645",
    "type": "potential",
    "customerTags": [
      "whatsapp user",
      "google marketing"
    ],
    "province": "İzmir"
  },
  {
    "name": "İbrahim Yalın Güzellik Salonu",
    "address": "İbrahim Yalın Güzellik Salonu, Süvari Cd. No:23, 35040 Bornova/İzmir",
    "lat": 38.4643179,
    "long": 27.2183115,
    "category": "Güzellik Salonu",
    "phone": "02323420022",
    "type": "potential",
    "customerTags": [
      "fixed number",
      "google marketing"
    ],
    "province": "İzmir"
  },
  {
    "name": "İbrahim & İbrahim Kuaför",
    "address": "İbrahim & İbrahim Kuaför, 153. Sk. No:6, 35100 Bornova/İzmir",
    "lat": 38.4644337,
    "long": 27.2162658,
    "category": "Kuaför",
    "phone": "02323420022",
    "type": "potential",
    "customerTags": [
      "fixed number",
      "google marketing"
    ],
    "province": "İzmir"
  },
  {
    "name": "Eylül Çolak Nail Studio",
    "address": "Eylül Çolak Nail Studio, 168. Sk. No:8/A, 35100 Bornova/İzmir",
    "lat": 38.4590854,
    "long": 27.212138799999998,
    "category": "Manikür/Pedikür Salonu",
    "phone": "05414673506",
    "type": "potential",
    "customerTags": [
      "whatsapp user",
      "google marketing"
    ],
    "province": "İzmir"
  },
  {
    "name": "Nehir Güzellik Salonu",
    "address": "Nehir Güzellik Salonu, 1084/2. Sk. NO:1 / B, 35040 Bornova/İzmir",
    "lat": 38.466651,
    "long": 27.219179999999998,
    "category": "Güzellik Salonu",
    "phone": "",
    "type": "potential",
    "customerTags": [
      "no number",
      "google marketing"
    ],
    "province": "İzmir"
  },
  {
    "name": "Aslı Güzellik Salonu",
    "address": "Aslı Güzellik Salonu, 4301. Sk. No:8/A, 35080 Bornova/İzmir",
    "lat": 38.425297799999996,
    "long": 27.202263199999997,
    "category": "Güzellik Salonu",
    "phone": "02324670402",
    "type": "potential",
    "customerTags": [
      "fixed number",
      "google marketing"
    ],
    "province": "İzmir"
  },
  {
    "name": "Deniz Saka Beauty Nail Bar",
    "address": "Deniz Saka Beauty Nail Bar, 364/11. Sk. No:1 D:3G, 35100 Bornova/İzmir",
    "lat": 38.445884,
    "long": 27.20066,
    "category": "Güzellik Salonu",
    "phone": "05302664840",
    "type": "potential",
    "customerTags": [
      "whatsapp user",
      "google marketing"
    ],
    "province": "İzmir"
  },
  {
    "name": "Soner Saç Tasarım",
    "address": "Soner Saç Tasarım, 154. Sk. 6/A, 35100 Bornova/İzmir",
    "lat": 38.4639501,
    "long": 27.2152171,
    "category": "Güzellik Salonu",
    "phone": "02323422248",
    "type": "potential",
    "customerTags": [
      "fixed number",
      "google marketing"
    ],
    "province": "İzmir"
  },
  {
    "name": "MOD GÜZELLİK",
    "address": "MOD GÜZELLİK, 83. Sk. 11/A, 35040 Bornova/İzmir",
    "lat": 38.464660699999996,
    "long": 27.220932299999998,
    "category": "Güzellik Salonu",
    "phone": "05442261091",
    "type": "potential",
    "customerTags": [
      "whatsapp user",
      "google marketing"
    ],
    "province": "İzmir"
  },
  {
    "name": "MOD GÜZELLİK",
    "address": "MOD GÜZELLİK, 83. Sk. 11/A, 35040 Bornova/İzmir",
    "lat": 38.464660699999996,
    "long": 27.220932299999998,
    "category": "Güzellik Salonu",
    "phone": "05442261091",
    "type": "potential",
    "customerTags": [
      "whatsapp user",
      "google marketing"
    ],
    "province": "İzmir"
  },
  {
    "name": "Kumsal Güzellik Salonu",
    "address": "Kumsal Güzellik Salonu, 4195. Sk. No:16, 35080 Gökdere/Bornova/İzmir",
    "lat": 38.4276619,
    "long": 27.201098199999997,
    "category": "Güzellik Salonu",
    "phone": "",
    "type": "potential",
    "customerTags": [
      "no number",
      "google marketing"
    ],
    "province": "İzmir"
  },
  {
    "name": "   Yeşil Bornova Kilo Kontrol Merkezi • Herbalife ✨",
    "address": "🌴 Yeşil Bornova Kilo Kontrol Merkezi • Herbalife ✨, 555. Sk. No:141/A, 35050 Bornova/İzmir",
    "lat": 38.46464580000001,
    "long": 27.209545700000003,
    "category": "Güzellik Salonu",
    "phone": "05069834031",
    "type": "potential",
    "customerTags": [
      "whatsapp user",
      "google marketing"
    ],
    "province": "İzmir"
  },
  {
    "name": "Gül nails lounge",
    "address": "Gül nails lounge, 71. Sk. 6/b, 35040 Bornova/İzmir",
    "lat": 38.465015,
    "long": 27.2233,
    "category": "Güzellik Salonu",
    "phone": "05459683522",
    "type": "potential",
    "customerTags": [
      "whatsapp user",
      "google marketing"
    ],
    "province": "İzmir"
  },
  {
    "name": "black pink beauty saloon",
    "address": "black pink beauty saloon, 454. Sk. no:2 daire:1, 35040 Bornova/İzmir",
    "lat": 38.4677242,
    "long": 27.2195683,
    "category": "Lazer Epilasyon Hizmeti",
    "phone": "05451150035",
    "type": "potential",
    "customerTags": [
      "whatsapp user",
      "google marketing"
    ],
    "province": "İzmir"
  },
  {
    "name": "Hestia Güzellik Yaşam",
    "address": "Hestia Güzellik Yaşam, k:, Mustafa Kemal Cd. No:1 no:49 d:1, Bornova/İzmir",
    "lat": 38.466363799999996,
    "long": 27.218788999999997,
    "category": "Güzellik Salonu",
    "phone": "05458430071",
    "type": "potential",
    "customerTags": [
      "whatsapp user",
      "google marketing"
    ],
    "province": "İzmir"
  },
  {
    "name": "Green Nail&Beauty",
    "address": "Kazımdirik Mah. 364/8 No:2 B Blok Daire:2J, Zemin Kat, 35100 Bornova/İzmir",
    "lat": 38.4456424,
    "long": 27.2056832,
    "category": "Güzellik Salonu",
    "phone": "05543984097",
    "type": "potential",
    "customerTags": [
      "whatsapp user",
      "google marketing"
    ],
    "province": "İzmir"
  },
  {
    "name": "Blue Life Beauty",
    "address": "Blue Life Beauty, Media Markt karşısı, Mithatpaşa Cd. No:61/B B, 35330 Balçova/İzmir",
    "lat": 38.3944786,
    "long": 27.0558621,
    "category": "Sağlık ve Güzellik Merkezi",
    "phone": "05013350009",
    "type": "potential",
    "customerTags": [
      "whatsapp user",
      "google marketing"
    ],
    "province": "İzmir"
  },
  {
    "name": "Suen Güzellik Salonu",
    "address": "Suen Güzellik Salonu, Öncel Aptartmanı, 550. Sk. No: 39/2, 35030 Bornova/İzmir",
    "lat": 38.4638275,
    "long": 27.209944099999998,
    "category": "Güzellik Salonu",
    "phone": "02323744075",
    "type": "potential",
    "customerTags": [
      "fixed number",
      "google marketing"
    ],
    "province": "İzmir"
  },
  {
    "name": "Serap Duman saç tasarım ve güzelli̇k merkezi",
    "address": "Kazımdirik mh. 154sok ufuk AP 6/d, 35030 Bornova/İzmir",
    "lat": 38.462329,
    "long": 27.2168536,
    "category": "Güzellik Salonu",
    "phone": "05073622200",
    "type": "potential",
    "customerTags": [
      "whatsapp user",
      "google marketing"
    ],
    "province": "İzmir"
  },
  {
    "name": "İbrahim & İbrahim Kuaför Bornova Özkanlar",
    "address": "İbrahim & İbrahim Kuaför Bornova Özkanlar, Sakarya Cd. No:15, 35535 Bayraklı/İzmir",
    "lat": 38.4594036,
    "long": 27.197523800000003,
    "category": "Güzellik Salonu",
    "phone": "02323471236",
    "type": "potential",
    "customerTags": [
      "fixed number",
      "google marketing"
    ],
    "province": "İzmir"
  },
  {
    "name": "Füsun Güzellik Salonu",
    "address": "Füsun Güzellik Salonu, 12. Sk. No:12, 35040 Bornova/İzmir",
    "lat": 38.465928999999996,
    "long": 27.221676,
    "category": "Güzellik Salonu",
    "phone": "05316982485",
    "type": "potential",
    "customerTags": [
      "whatsapp user",
      "google marketing"
    ],
    "province": "İzmir"
  },
  {
    "name": "Scherie Club",
    "address": "Bornova/İzmir",
    "lat": 38.4626548,
    "long": 27.2440957,
    "category": "Güzellik Salonu",
    "phone": "02323420945",
    "type": "potential",
    "customerTags": [
      "fixed number",
      "google marketing"
    ],
    "province": "İzmir"
  },
  {
    "name": "Yağmur Güzellik Salonu",
    "address": "Yağmur Güzellik Salonu, 550. Sk. No:39, 35040 Bornova/İzmir",
    "lat": 38.4641352,
    "long": 27.209636999999997,
    "category": "Güzellik Salonu",
    "phone": "",
    "type": "potential",
    "customerTags": [
      "no number",
      "google marketing"
    ],
    "province": "İzmir"
  },
  {
    "name": "H&D HAİR DESİGN Bornova",
    "address": "H&D HAİR DESİGN Bornova, Sanayi Cd. No:22, 35100 Bornova/İzmir",
    "lat": 38.453432,
    "long": 27.2028227,
    "category": "Güzellik Salonu",
    "phone": "05393349595",
    "type": "potential",
    "customerTags": [
      "whatsapp user",
      "google marketing"
    ],
    "province": "İzmir"
  },
  {
    "name": "Aylin Güzellik Salonu",
    "address": "Aylin Güzellik Salonu, 126/4. Sk. No:3/C, 35050 Bornova/İzmir",
    "lat": 38.464493999999995,
    "long": 27.249185999999998,
    "category": "Güzellik Salonu",
    "phone": "05367613540",
    "type": "potential",
    "customerTags": [
      "whatsapp user",
      "google marketing"
    ],
    "province": "İzmir"
  },
  {
    "name": "Eylül Kuaför/Güzellik",
    "address": "Eylül Kuaför/Güzellik, Yüzbaşı İbrahim Hakkı Cd. 35-1, 35040 Bornova/İzmir",
    "lat": 38.4668619,
    "long": 27.2138971,
    "category": "Güzellik Salonu",
    "phone": "02329990784",
    "type": "potential",
    "customerTags": [
      "fixed number",
      "google marketing"
    ],
    "province": "İzmir"
  },
  {
    "name": "Yarence Beauty",
    "address": "Yarence Beauty, Uzay Apt, Mustafa Kemal Cd. No:34 Kat 1 Daire 1, 35040 Bornova/İzmir",
    "lat": 38.465112399999995,
    "long": 27.216088300000003,
    "category": "Güzellik Salonu",
    "phone": "05445058681",
    "type": "potential",
    "customerTags": [
      "whatsapp user",
      "google marketing"
    ],
    "province": "İzmir"
  },
  {
    "name": "Gizem Buldu Güzellik Doğanlar",
    "address": "Doğanlar, 1550. Sk. No:29/A, 35050, 35000 Bornova/İzmir",
    "lat": 38.4514512,
    "long": 27.246313299999997,
    "category": "Güzellik Salonu",
    "phone": "05333322610",
    "type": "potential",
    "customerTags": [
      "whatsapp user",
      "google marketing"
    ],
    "province": "İzmir"
  }
]